{
  "name": "Cherry Servers",
  "website": "https://www.cherryservers.com",
  "hosts": [
    {
      "city": "Siauliai",
      "country": "Lithuania",
      "continent": "Europe",
      "regionId": "siauliai",
      "hostname": "speedtest.lt.cherryservers.com",
      "latitude": 55.9349,
      "longitude": 23.3137
    },
    {
      "city": "Amsterdam",
      "country": "Netherlands",
      "continent": "Europe",
      "regionId": "amsterdam",
      "hostname": "speedtest.nl.cherryservers.com",
      "latitude": 52.3676,
      "longitude": 4.9041
    },
    {
      "city": "Chicago",
      "country": "United States",
      "continent": "North America",
      "regionId": "chicago",
      "hostname": "speedtest.us.cherryservers.com",
      "latitude": 41.8781,
      "longitude": -87.6298
    },
    {
      "city": "Singapore",
      "country": "Singapore",
      "continent": "Asia",
      "regionId": "singapore",
      "hostname": "speedtest.sg.cherryservers.com",
      "latitude": 1.3521,
      "longitude": 103.8198
    },
    {
      "city": "Stockholm",
      "country": "Sweden",
      "continent": "Europe",
      "regionId": "stockholm",
      "hostname": "speedtest.se.cherryservers.com",
      "latitude": 59.3293,
      "longitude": 18.0686
    },
    {
      "city": "Frankfurt",
      "country": "Germany",
      "continent": "Europe",
      "regionId": "frankfurt",
      "hostname": "speedtest.de.cherryservers.com",
      "latitude": 50.1109,
      "longitude": 8.6821
    }
  ]
}
